{"fuel":[{"name":"Parallel","lat":50.49525,"lng":30.49057},{"name":"Народна","lat":50.52761,"lng":30.49827},{"name":"ОККО","lat":50.50656,"lng":30.48255},{"name":"KLO","lat":50.50307,"lng":30.48346},{"name":"SOCAR","lat":50.50568,"lng":30.48286},{"name":"КЛО","lat":50.51198,"lng":30.48462},{"name":"ОККО","lat":50.50786,"lng":30.48401},{"name":"WOG","lat":50.52805,"lng":30.48267}],"churches":[{"name":"Церква «Пробудження»","lat":50.50603,"lng":30.48712},{"name":"Церква Ісуса Христа останніх днів","lat":50.50361,"lng":30.50712},{"name":"Зал Царства Свідків Єгови","lat":50.50681,"lng":30.49928},{"name":"Сінагога Хабад Оболонь","lat":50.51687,"lng":30.511},{"name":"Свято-Покровський храм","lat":50.51212,"lng":30.51242},{"name":"Храм Ікони Божої Матері «Неопалима купина»","lat":50.50087,"lng":30.49249},{"name":"Храм на честь ікони Божої Матері «Помічниця в пологах»","lat":50.50865,"lng":30.50931}]}